{
"type": "FeatureCollection",
"crs": { "type": "name", "properties": { "name": "urn:ogc:def:crs:OGC:1.3:CRS84" } },
"features": [
{ "type": "Feature", "properties": { "date": "2023-02-09", "time": "07:12:43", "traffic_class": "free flow", "place": "Agidingbi", "lat": 6.6231378, "lng": 3.356525, "admin2Name": "Ikeja", "Shape_Leng": 0.372018, "Shape_Area": 0.003809 }, "geometry": { "type": "Point", "coordinates": [ 3.356525, 6.6231378 ] } },
{ "type": "Feature", "properties": { "date": "2023-02-09", "time": "15:35:00", "traffic_class": "heavy traffic", "place": "Ikeja", "lat": 6.601838, "lng": 3.3514863, "admin2Name": "Ikeja", "Shape_Leng": 0.372018, "Shape_Area": 0.003809 }, "geometry": { "type": "Point", "coordinates": [ 3.3514863, 6.601838 ] } },
{ "type": "Feature", "properties": { "date": "2023-02-09", "time": "15:35:00", "traffic_class": "free flow", "place": "Ajayi Farm", "lat": 6.599848, "lng": 3.334131, "admin2Name": "Ikeja", "Shape_Leng": 0.372018, "Shape_Area": 0.003809 }, "geometry": { "type": "Point", "coordinates": [ 3.334131, 6.599848 ] } },
{ "type": "Feature", "properties": { "date": "2023-02-09", "time": "15:35:00", "traffic_class": "free flow", "place": "Ile Zik", "lat": 6.602335, "lng": 3.33217, "admin2Name": "Ikeja", "Shape_Leng": 0.372018, "Shape_Area": 0.003809 }, "geometry": { "type": "Point", "coordinates": [ 3.33217, 6.602335 ] } },
{ "type": "Feature", "properties": { "date": "2023-02-10", "time": "06:59:05", "traffic_class": "heavy traffic", "place": "Omole Estate.", "lat": 6.6364462, "lng": 3.3576864, "admin2Name": "Ikeja", "Shape_Leng": 0.372018, "Shape_Area": 0.003809 }, "geometry": { "type": "Point", "coordinates": [ 3.3576864, 6.6364462 ] } },
{ "type": "Feature", "properties": { "date": "2023-02-09", "time": "14:46:41", "traffic_class": "heavy traffic", "place": "Ikeja", "lat": 6.601838, "lng": 3.3514863, "admin2Name": "Ikeja", "Shape_Leng": 0.372018, "Shape_Area": 0.003809 }, "geometry": { "type": "Point", "coordinates": [ 3.3514863, 6.601838 ] } },
{ "type": "Feature", "properties": { "date": "2023-02-09", "time": "15:35:00", "traffic_class": "free flow", "place": "Ajayi Farm", "lat": 6.599848, "lng": 3.334131, "admin2Name": "Ikeja", "Shape_Leng": 0.372018, "Shape_Area": 0.003809 }, "geometry": { "type": "Point", "coordinates": [ 3.334131, 6.599848 ] } },
{ "type": "Feature", "properties": { "date": "2023-02-09", "time": "15:35:00", "traffic_class": "free flow", "place": "Ile Zik", "lat": 6.602335, "lng": 3.33217, "admin2Name": "Ikeja", "Shape_Leng": 0.372018, "Shape_Area": 0.003809 }, "geometry": { "type": "Point", "coordinates": [ 3.33217, 6.602335 ] } },
{ "type": "Feature", "properties": { "date": "2023-02-09", "time": "18:06:49", "traffic_class": "heavy traffic", "place": "Ikeja", "lat": 6.601838, "lng": 3.3514863, "admin2Name": "Ikeja", "Shape_Leng": 0.372018, "Shape_Area": 0.003809 }, "geometry": { "type": "Point", "coordinates": [ 3.3514863, 6.601838 ] } },
{ "type": "Feature", "properties": { "date": "2023-02-09", "time": "18:06:49", "traffic_class": "heavy traffic", "place": "Ajayi Farm.", "lat": 6.599848, "lng": 3.334131, "admin2Name": "Ikeja", "Shape_Leng": 0.372018, "Shape_Area": 0.003809 }, "geometry": { "type": "Point", "coordinates": [ 3.334131, 6.599848 ] } },
{ "type": "Feature", "properties": { "date": "2023-02-10", "time": "16:50:49", "traffic_class": "free flow", "place": "Billings Way", "lat": 6.6059514, "lng": 3.3652131, "admin2Name": "Ikeja", "Shape_Leng": 0.372018, "Shape_Area": 0.003809 }, "geometry": { "type": "Point", "coordinates": [ 3.3652131, 6.6059514 ] } },
{ "type": "Feature", "properties": { "date": "2023-02-10", "time": "16:50:49", "traffic_class": "free flow", "place": "Kudirat Abiola Way", "lat": 6.5992286, "lng": 3.3658715, "admin2Name": "Ikeja", "Shape_Leng": 0.372018, "Shape_Area": 0.003809 }, "geometry": { "type": "Point", "coordinates": [ 3.3658715, 6.5992286 ] } },
{ "type": "Feature", "properties": { "date": "2023-02-10", "time": "16:50:49", "traffic_class": "free flow", "place": "Opebi Road", "lat": 6.5897006, "lng": 3.361005, "admin2Name": "Ikeja", "Shape_Leng": 0.372018, "Shape_Area": 0.003809 }, "geometry": { "type": "Point", "coordinates": [ 3.361005, 6.5897006 ] } },
{ "type": "Feature", "properties": { "date": "2023-02-10", "time": "16:50:49", "traffic_class": "free flow", "place": "Opebi-Welfare Link Bridges", "lat": 6.5893734, "lng": 3.3613958, "admin2Name": "Ikeja", "Shape_Leng": 0.372018, "Shape_Area": 0.003809 }, "geometry": { "type": "Point", "coordinates": [ 3.3613958, 6.5893734 ] } },
{ "type": "Feature", "properties": { "date": "2023-02-12", "time": "06:28:14", "traffic_class": "free flow", "place": "Ogba", "lat": 6.6251882, "lng": 3.3441475, "admin2Name": "Ikeja", "Shape_Leng": 0.372018, "Shape_Area": 0.003809 }, "geometry": { "type": "Point", "coordinates": [ 3.3441475, 6.6251882 ] } },
{ "type": "Feature", "properties": { "date": "2023-02-12", "time": "09:30:23", "traffic_class": "free flow", "place": "Awolowo Way", "lat": 6.6075419, "lng": 3.3498675, "admin2Name": "Ikeja", "Shape_Leng": 0.372018, "Shape_Area": 0.003809 }, "geometry": { "type": "Point", "coordinates": [ 3.3498675, 6.6075419 ] } },
{ "type": "Feature", "properties": { "date": "2023-02-12", "time": "09:30:23", "traffic_class": "free flow", "place": "Allen Avenue", "lat": 6.6017292, "lng": 3.3520211, "admin2Name": "Ikeja", "Shape_Leng": 0.372018, "Shape_Area": 0.003809 }, "geometry": { "type": "Point", "coordinates": [ 3.3520211, 6.6017292 ] } },
{ "type": "Feature", "properties": { "date": "2023-02-12", "time": "09:30:23", "traffic_class": "free flow", "place": "Opebi", "lat": 6.5893734, "lng": 3.3613958, "admin2Name": "Ikeja", "Shape_Leng": 0.372018, "Shape_Area": 0.003809 }, "geometry": { "type": "Point", "coordinates": [ 3.3613958, 6.5893734 ] } },
{ "type": "Feature", "properties": { "date": "2023-02-12", "time": "09:30:27", "traffic_class": "free flow", "place": "Toyin Street", "lat": 6.596069, "lng": 3.3509715, "admin2Name": "Ikeja", "Shape_Leng": 0.372018, "Shape_Area": 0.003809 }, "geometry": { "type": "Point", "coordinates": [ 3.3509715, 6.596069 ] } },
{ "type": "Feature", "properties": { "date": "2023-02-12", "time": "09:30:27", "traffic_class": "free flow", "place": "Opebi link Rd", "lat": 6.5948269, "lng": 3.363406, "admin2Name": "Ikeja", "Shape_Leng": 0.372018, "Shape_Area": 0.003809 }, "geometry": { "type": "Point", "coordinates": [ 3.363406, 6.5948269 ] } },
{ "type": "Feature", "properties": { "date": "2023-02-12", "time": "09:34:21", "traffic_class": "free flow", "place": "Ogba", "lat": 6.6251882, "lng": 3.3441475, "admin2Name": "Ikeja", "Shape_Leng": 0.372018, "Shape_Area": 0.003809 }, "geometry": { "type": "Point", "coordinates": [ 3.3441475, 6.6251882 ] } },
{ "type": "Feature", "properties": { "date": "2023-02-14", "time": "17:08:25", "traffic_class": "heavy traffic", "place": "kudirat abiola way", "lat": 6.5992286, "lng": 3.3658715, "admin2Name": "Ikeja", "Shape_Leng": 0.372018, "Shape_Area": 0.003809 }, "geometry": { "type": "Point", "coordinates": [ 3.3658715, 6.5992286 ] } },
{ "type": "Feature", "properties": { "date": "2023-02-15", "time": "06:46:48", "traffic_class": "free flow", "place": "Ile Zik", "lat": 6.602335, "lng": 3.33217, "admin2Name": "Ikeja", "Shape_Leng": 0.372018, "Shape_Area": 0.003809 }, "geometry": { "type": "Point", "coordinates": [ 3.33217, 6.602335 ] } },
{ "type": "Feature", "properties": { "date": "2023-02-15", "time": "16:58:31", "traffic_class": "heavy traffic", "place": "Ogba", "lat": 6.6251882, "lng": 3.3441475, "admin2Name": "Ikeja", "Shape_Leng": 0.372018, "Shape_Area": 0.003809 }, "geometry": { "type": "Point", "coordinates": [ 3.3441475, 6.6251882 ] } },
{ "type": "Feature", "properties": { "date": "2023-02-09", "time": "07:18:48", "traffic_class": "heavy traffic", "place": "Lekki conservation", "lat": 6.4698419, "lng": 3.5851718, "admin2Name": "Eti-Osa", "Shape_Leng": 0.750129, "Shape_Area": 0.015616 }, "geometry": { "type": "Point", "coordinates": [ 3.5851718, 6.4698419 ] } },
{ "type": "Feature", "properties": { "date": "2023-02-09", "time": "07:59:51", "traffic_class": "heavy traffic", "place": "Falomo roundabout", "lat": 6.4441991, "lng": 3.4271887, "admin2Name": "Eti-Osa", "Shape_Leng": 0.750129, "Shape_Area": 0.015616 }, "geometry": { "type": "Point", "coordinates": [ 3.4271887, 6.4441991 ] } },
{ "type": "Feature", "properties": { "date": "2023-02-09", "time": "07:59:52", "traffic_class": "heavy traffic", "place": "Obalende Ubridge", "lat": 6.4483221, "lng": 3.410724, "admin2Name": "Eti-Osa", "Shape_Leng": 0.750129, "Shape_Area": 0.015616 }, "geometry": { "type": "Point", "coordinates": [ 3.410724, 6.4483221 ] } },
{ "type": "Feature", "properties": { "date": "2023-02-09", "time": "09:43:16", "traffic_class": "breakdown", "place": "Bonny Camp", "lat": 6.4370489, "lng": 3.4073982, "admin2Name": "Eti-Osa", "Shape_Leng": 0.750129, "Shape_Area": 0.015616 }, "geometry": { "type": "Point", "coordinates": [ 3.4073982, 6.4370489 ] } },
{ "type": "Feature", "properties": { "date": "2023-02-09", "time": "10:06:34", "traffic_class": "breakdown", "place": "Bonny Camp", "lat": 6.4370489, "lng": 3.4073982, "admin2Name": "Eti-Osa", "Shape_Leng": 0.750129, "Shape_Area": 0.015616 }, "geometry": { "type": "Point", "coordinates": [ 3.4073982, 6.4370489 ] } },
{ "type": "Feature", "properties": { "date": "2023-02-09", "time": "14:07:39", "traffic_class": "free flow", "place": "Obalende bridge", "lat": 6.4493617, "lng": 3.4098765, "admin2Name": "Eti-Osa", "Shape_Leng": 0.750129, "Shape_Area": 0.015616 }, "geometry": { "type": "Point", "coordinates": [ 3.4098765, 6.4493617 ] } },
{ "type": "Feature", "properties": { "date": "2023-02-09", "time": "07:59:52", "traffic_class": "heavy traffic", "place": "Obalende Ubridge", "lat": 6.4483221, "lng": 3.410724, "admin2Name": "Eti-Osa", "Shape_Leng": 0.750129, "Shape_Area": 0.015616 }, "geometry": { "type": "Point", "coordinates": [ 3.410724, 6.4483221 ] } },
{ "type": "Feature", "properties": { "date": "2023-02-09", "time": "09:43:16", "traffic_class": "breakdown", "place": "Bonny Camp", "lat": 6.4370489, "lng": 3.4073982, "admin2Name": "Eti-Osa", "Shape_Leng": 0.750129, "Shape_Area": 0.015616 }, "geometry": { "type": "Point", "coordinates": [ 3.4073982, 6.4370489 ] } },
{ "type": "Feature", "properties": { "date": "2023-02-09", "time": "10:06:34", "traffic_class": "breakdown", "place": "Bonny Camp", "lat": 6.4370489, "lng": 3.4073982, "admin2Name": "Eti-Osa", "Shape_Leng": 0.750129, "Shape_Area": 0.015616 }, "geometry": { "type": "Point", "coordinates": [ 3.4073982, 6.4370489 ] } },
{ "type": "Feature", "properties": { "date": "2023-02-09", "time": "14:07:39", "traffic_class": "free flow", "place": "Obalende bridge", "lat": 6.4493617, "lng": 3.4098765, "admin2Name": "Eti-Osa", "Shape_Leng": 0.750129, "Shape_Area": 0.015616 }, "geometry": { "type": "Point", "coordinates": [ 3.4098765, 6.4493617 ] } },
{ "type": "Feature", "properties": { "date": "2023-02-10", "time": "08:36:05", "traffic_class": "accident", "place": "obalende bridge", "lat": 6.4493617, "lng": 3.4098765, "admin2Name": "Eti-Osa", "Shape_Leng": 0.750129, "Shape_Area": 0.015616 }, "geometry": { "type": "Point", "coordinates": [ 3.4098765, 6.4493617 ] } },
{ "type": "Feature", "properties": { "date": "2023-02-10", "time": "08:36:05", "traffic_class": "accident", "place": "obalende bridge", "lat": 6.4493617, "lng": 3.4098765, "admin2Name": "Eti-Osa", "Shape_Leng": 0.750129, "Shape_Area": 0.015616 }, "geometry": { "type": "Point", "coordinates": [ 3.4098765, 6.4493617 ] } },
{ "type": "Feature", "properties": { "date": "2023-02-13", "time": "08:16:15", "traffic_class": "free flow", "place": "Obalende", "lat": 6.4483221, "lng": 3.410724, "admin2Name": "Eti-Osa", "Shape_Leng": 0.750129, "Shape_Area": 0.015616 }, "geometry": { "type": "Point", "coordinates": [ 3.410724, 6.4483221 ] } },
{ "type": "Feature", "properties": { "date": "2023-02-09", "time": "07:18:49", "traffic_class": "free flow", "place": "Ikate", "lat": 6.5072425, "lng": 3.3451358, "admin2Name": "Surulere", "Shape_Leng": 0.213765, "Shape_Area": 0.001598 }, "geometry": { "type": "Point", "coordinates": [ 3.3451358, 6.5072425 ] } },
{ "type": "Feature", "properties": { "date": "2023-02-09", "time": "10:04:03", "traffic_class": "breakdown", "place": "Orile", "lat": 6.4780354, "lng": 3.3426697, "admin2Name": "Surulere", "Shape_Leng": 0.213765, "Shape_Area": 0.001598 }, "geometry": { "type": "Point", "coordinates": [ 3.3426697, 6.4780354 ] } },
{ "type": "Feature", "properties": { "date": "2023-02-09", "time": "10:04:03", "traffic_class": "breakdown", "place": "Orile", "lat": 6.4780354, "lng": 3.3426697, "admin2Name": "Surulere", "Shape_Leng": 0.213765, "Shape_Area": 0.001598 }, "geometry": { "type": "Point", "coordinates": [ 3.3426697, 6.4780354 ] } },
{ "type": "Feature", "properties": { "date": "2023-02-13", "time": "17:11:50", "traffic_class": "heavy traffic", "place": "Ikate", "lat": 6.5072425, "lng": 3.3451358, "admin2Name": "Surulere", "Shape_Leng": 0.213765, "Shape_Area": 0.001598 }, "geometry": { "type": "Point", "coordinates": [ 3.3451358, 6.5072425 ] } },
{ "type": "Feature", "properties": { "date": "2023-02-09", "time": "07:29:07", "traffic_class": "heavy traffic", "place": "Cele/ijesha fly over bridge", "lat": 6.505908, "lng": 3.3236003, "admin2Name": "Oshodi-Isolo", "Shape_Leng": 0.315352, "Shape_Area": 0.003608 }, "geometry": { "type": "Point", "coordinates": [ 3.3236003, 6.505908 ] } },
{ "type": "Feature", "properties": { "date": "2023-02-09", "time": "07:29:08", "traffic_class": "heavy traffic", "place": "Ago roundabout", "lat": 6.5166755, "lng": 3.3191264, "admin2Name": "Oshodi-Isolo", "Shape_Leng": 0.315352, "Shape_Area": 0.003608 }, "geometry": { "type": "Point", "coordinates": [ 3.3191264, 6.5166755 ] } },
{ "type": "Feature", "properties": { "date": "2023-02-09", "time": "07:29:08", "traffic_class": "heavy traffic", "place": "Ago roundabout", "lat": 6.5166755, "lng": 3.3191264, "admin2Name": "Oshodi-Isolo", "Shape_Leng": 0.315352, "Shape_Area": 0.003608 }, "geometry": { "type": "Point", "coordinates": [ 3.3191264, 6.5166755 ] } },
{ "type": "Feature", "properties": { "date": "2023-02-09", "time": "07:29:08", "traffic_class": "free flow", "place": "Ago roundabout", "lat": 6.5166755, "lng": 3.3191264, "admin2Name": "Oshodi-Isolo", "Shape_Leng": 0.315352, "Shape_Area": 0.003608 }, "geometry": { "type": "Point", "coordinates": [ 3.3191264, 6.5166755 ] } },
{ "type": "Feature", "properties": { "date": "2023-02-09", "time": "07:29:08", "traffic_class": "heavy traffic", "place": "Oke-afa", "lat": 6.530554, "lng": 3.3125281, "admin2Name": "Oshodi-Isolo", "Shape_Leng": 0.315352, "Shape_Area": 0.003608 }, "geometry": { "type": "Point", "coordinates": [ 3.3125281, 6.530554 ] } },
{ "type": "Feature", "properties": { "date": "2023-02-09", "time": "07:29:09", "traffic_class": "free flow", "place": "Iyana isolo", "lat": 6.531492, "lng": 3.3359385, "admin2Name": "Oshodi-Isolo", "Shape_Leng": 0.315352, "Shape_Area": 0.003608 }, "geometry": { "type": "Point", "coordinates": [ 3.3359385, 6.531492 ] } },
{ "type": "Feature", "properties": { "date": "2023-02-09", "time": "14:46:38", "traffic_class": "free flow", "place": "Osolo Way", "lat": 6.5399002, "lng": 3.3328098, "admin2Name": "Oshodi-Isolo", "Shape_Leng": 0.315352, "Shape_Area": 0.003608 }, "geometry": { "type": "Point", "coordinates": [ 3.3328098, 6.5399002 ] } },
{ "type": "Feature", "properties": { "date": "2023-02-09", "time": "14:46:40", "traffic_class": "free flow", "place": "Osolo Way", "lat": 6.5399002, "lng": 3.3328098, "admin2Name": "Oshodi-Isolo", "Shape_Leng": 0.315352, "Shape_Area": 0.003608 }, "geometry": { "type": "Point", "coordinates": [ 3.3328098, 6.5399002 ] } },
{ "type": "Feature", "properties": { "date": "2023-02-09", "time": "14:46:38", "traffic_class": "free flow", "place": "Osolo Way", "lat": 6.5399002, "lng": 3.3328098, "admin2Name": "Oshodi-Isolo", "Shape_Leng": 0.315352, "Shape_Area": 0.003608 }, "geometry": { "type": "Point", "coordinates": [ 3.3328098, 6.5399002 ] } },
{ "type": "Feature", "properties": { "date": "2023-02-09", "time": "14:46:40", "traffic_class": "free flow", "place": "Osolo Way", "lat": 6.5399002, "lng": 3.3328098, "admin2Name": "Oshodi-Isolo", "Shape_Leng": 0.315352, "Shape_Area": 0.003608 }, "geometry": { "type": "Point", "coordinates": [ 3.3328098, 6.5399002 ] } },
{ "type": "Feature", "properties": { "date": "2023-02-09", "time": "18:09:45", "traffic_class": "heavy traffic", "place": "Oke Afa", "lat": 6.530554, "lng": 3.3125281, "admin2Name": "Oshodi-Isolo", "Shape_Leng": 0.315352, "Shape_Area": 0.003608 }, "geometry": { "type": "Point", "coordinates": [ 3.3125281, 6.530554 ] } },
{ "type": "Feature", "properties": { "date": "2023-02-10", "time": "17:34:38", "traffic_class": "heavy traffic", "place": "Osolo-way", "lat": 6.5399002, "lng": 3.3328098, "admin2Name": "Oshodi-Isolo", "Shape_Leng": 0.315352, "Shape_Area": 0.003608 }, "geometry": { "type": "Point", "coordinates": [ 3.3328098, 6.5399002 ] } },
{ "type": "Feature", "properties": { "date": "2023-02-09", "time": "07:29:08", "traffic_class": "heavy traffic", "place": "Ishaga", "lat": 6.6409144, "lng": 3.3235571, "admin2Name": "Ifako-Ijaye", "Shape_Leng": 0.267549, "Shape_Area": 0.002703 }, "geometry": { "type": "Point", "coordinates": [ 3.3235571, 6.6409144 ] } },
{ "type": "Feature", "properties": { "date": "2023-02-09", "time": "15:46:22", "traffic_class": "free flow", "place": "Oba Ogunji", "lat": 6.6280062, "lng": 3.3241295, "admin2Name": "Ifako-Ijaye", "Shape_Leng": 0.267549, "Shape_Area": 0.002703 }, "geometry": { "type": "Point", "coordinates": [ 3.3241295, 6.6280062 ] } },
{ "type": "Feature", "properties": { "date": "2023-02-09", "time": "17:32:06", "traffic_class": "free flow", "place": "Ishaga", "lat": 6.6409144, "lng": 3.3235571, "admin2Name": "Ifako-Ijaye", "Shape_Leng": 0.267549, "Shape_Area": 0.002703 }, "geometry": { "type": "Point", "coordinates": [ 3.3235571, 6.6409144 ] } },
{ "type": "Feature", "properties": { "date": "2023-02-09", "time": "18:09:45", "traffic_class": "heavy traffic", "place": "Ishaga", "lat": 6.6409144, "lng": 3.3235571, "admin2Name": "Ifako-Ijaye", "Shape_Leng": 0.267549, "Shape_Area": 0.002703 }, "geometry": { "type": "Point", "coordinates": [ 3.3235571, 6.6409144 ] } },
{ "type": "Feature", "properties": { "date": "2023-02-10", "time": "20:43:13", "traffic_class": "heavy traffic", "place": "Fagba", "lat": 6.65764, "lng": 3.3244683, "admin2Name": "Ifako-Ijaye", "Shape_Leng": 0.267549, "Shape_Area": 0.002703 }, "geometry": { "type": "Point", "coordinates": [ 3.3244683, 6.65764 ] } },
{ "type": "Feature", "properties": { "date": "2023-02-13", "time": "05:54:14", "traffic_class": "heavy traffic", "place": "Jonathan Coker road", "lat": 6.6577269, "lng": 3.3184766, "admin2Name": "Ifako-Ijaye", "Shape_Leng": 0.267549, "Shape_Area": 0.002703 }, "geometry": { "type": "Point", "coordinates": [ 3.3184766, 6.6577269 ] } },
{ "type": "Feature", "properties": { "date": "2023-02-14", "time": "14:28:54", "traffic_class": "free flow", "place": "Fagba", "lat": 6.65764, "lng": 3.3244683, "admin2Name": "Ifako-Ijaye", "Shape_Leng": 0.267549, "Shape_Area": 0.002703 }, "geometry": { "type": "Point", "coordinates": [ 3.3244683, 6.65764 ] } },
{ "type": "Feature", "properties": { "date": "2023-02-15", "time": "07:42:31", "traffic_class": "free flow", "place": "Ajuwon Rd", "lat": 6.6717204, "lng": 3.3351808, "admin2Name": "Ifako-Ijaye", "Shape_Leng": 0.267549, "Shape_Area": 0.002703 }, "geometry": { "type": "Point", "coordinates": [ 3.3351808, 6.6717204 ] } },
{ "type": "Feature", "properties": { "date": "2023-02-15", "time": "07:42:31", "traffic_class": "free flow", "place": "Ishaga", "lat": 6.6409144, "lng": 3.3235571, "admin2Name": "Ifako-Ijaye", "Shape_Leng": 0.267549, "Shape_Area": 0.002703 }, "geometry": { "type": "Point", "coordinates": [ 3.3235571, 6.6409144 ] } },
{ "type": "Feature", "properties": { "date": "2023-02-09", "time": "07:29:09", "traffic_class": "free flow", "place": "Ilasa", "lat": 6.4149122, "lng": 3.2838282, "admin2Name": "Amuwo-Odofin", "Shape_Leng": 0.690195, "Shape_Area": 0.011342 }, "geometry": { "type": "Point", "coordinates": [ 3.2838282, 6.4149122 ] } },
{ "type": "Feature", "properties": { "date": "2023-02-09", "time": "07:52:10", "traffic_class": "free flow", "place": "Abule egba", "lat": 6.6483728, "lng": 3.2991753, "admin2Name": "Alimosho", "Shape_Leng": 0.589767, "Shape_Area": 0.015009 }, "geometry": { "type": "Point", "coordinates": [ 3.2991753, 6.6483728 ] } },
{ "type": "Feature", "properties": { "date": "2023-02-10", "time": "16:27:37", "traffic_class": "heavy traffic", "place": "Isheri round about", "lat": 6.5760587, "lng": 3.2809749, "admin2Name": "Alimosho", "Shape_Leng": 0.589767, "Shape_Area": 0.015009 }, "geometry": { "type": "Point", "coordinates": [ 3.2809749, 6.5760587 ] } },
{ "type": "Feature", "properties": { "date": "2023-02-13", "time": "05:28:22", "traffic_class": "free flow", "place": "Iyana Dopemu", "lat": 6.60927, "lng": 3.30786, "admin2Name": "Alimosho", "Shape_Leng": 0.589767, "Shape_Area": 0.015009 }, "geometry": { "type": "Point", "coordinates": [ 3.30786, 6.60927 ] } },
{ "type": "Feature", "properties": { "date": "2023-02-13", "time": "13:19:30", "traffic_class": "heavy traffic", "place": "Ikotun intersection", "lat": 6.5630684, "lng": 3.2505651, "admin2Name": "Alimosho", "Shape_Leng": 0.589767, "Shape_Area": 0.015009 }, "geometry": { "type": "Point", "coordinates": [ 3.2505651, 6.5630684 ] } },
{ "type": "Feature", "properties": { "date": "2023-02-14", "time": "19:13:17", "traffic_class": "breakdown", "place": "Iyanaipaja-Ayobo road", "lat": 6.6096226, "lng": 3.2873135, "admin2Name": "Alimosho", "Shape_Leng": 0.589767, "Shape_Area": 0.015009 }, "geometry": { "type": "Point", "coordinates": [ 3.2873135, 6.6096226 ] } },
{ "type": "Feature", "properties": { "date": "2023-02-15", "time": "06:46:46", "traffic_class": "free flow", "place": "Alakuko", "lat": 6.6811211, "lng": 3.2646492, "admin2Name": "Alimosho", "Shape_Leng": 0.589767, "Shape_Area": 0.015009 }, "geometry": { "type": "Point", "coordinates": [ 3.2646492, 6.6811211 ] } },
{ "type": "Feature", "properties": { "date": "2023-02-15", "time": "06:46:46", "traffic_class": "free flow", "place": "Moshalashi,", "lat": 6.6101507, "lng": 3.2931948, "admin2Name": "Alimosho", "Shape_Leng": 0.589767, "Shape_Area": 0.015009 }, "geometry": { "type": "Point", "coordinates": [ 3.2931948, 6.6101507 ] } },
{ "type": "Feature", "properties": { "date": "2023-02-15", "time": "06:46:48", "traffic_class": "free flow", "place": "Katangua", "lat": 6.6428843, "lng": 3.3043325, "admin2Name": "Alimosho", "Shape_Leng": 0.589767, "Shape_Area": 0.015009 }, "geometry": { "type": "Point", "coordinates": [ 3.3043325, 6.6428843 ] } },
{ "type": "Feature", "properties": { "date": "2023-02-15", "time": "06:46:48", "traffic_class": "free flow", "place": "Ile-Epo", "lat": 6.6350513, "lng": 3.3018154, "admin2Name": "Alimosho", "Shape_Leng": 0.589767, "Shape_Area": 0.015009 }, "geometry": { "type": "Point", "coordinates": [ 3.3018154, 6.6350513 ] } },
{ "type": "Feature", "properties": { "date": "2023-02-15", "time": "06:46:48", "traffic_class": "free flow", "place": "Adealu", "lat": 6.6127511, "lng": 3.3050287, "admin2Name": "Alimosho", "Shape_Leng": 0.589767, "Shape_Area": 0.015009 }, "geometry": { "type": "Point", "coordinates": [ 3.3050287, 6.6127511 ] } },
{ "type": "Feature", "properties": { "date": "2023-02-09", "time": "07:52:11", "traffic_class": "free flow", "place": "Oke koto", "lat": 6.6273996, "lng": 3.3174882, "admin2Name": "Agege", "Shape_Leng": 0.136929, "Shape_Area": 0.000939 }, "geometry": { "type": "Point", "coordinates": [ 3.3174882, 6.6273996 ] } },
{ "type": "Feature", "properties": { "date": "2023-02-09", "time": "07:52:11", "traffic_class": "free flow", "place": "Sofunde", "lat": 6.624722, "lng": 3.316884, "admin2Name": "Agege", "Shape_Leng": 0.136929, "Shape_Area": 0.000939 }, "geometry": { "type": "Point", "coordinates": [ 3.316884, 6.624722 ] } },
{ "type": "Feature", "properties": { "date": "2023-02-09", "time": "07:52:11", "traffic_class": "free flow", "place": "Oke koto", "lat": 6.6273996, "lng": 3.3174882, "admin2Name": "Agege", "Shape_Leng": 0.136929, "Shape_Area": 0.000939 }, "geometry": { "type": "Point", "coordinates": [ 3.3174882, 6.6273996 ] } },
{ "type": "Feature", "properties": { "date": "2023-02-09", "time": "07:52:11", "traffic_class": "heavy traffic", "place": "Sofunde", "lat": 6.624722, "lng": 3.316884, "admin2Name": "Agege", "Shape_Leng": 0.136929, "Shape_Area": 0.000939 }, "geometry": { "type": "Point", "coordinates": [ 3.316884, 6.624722 ] } },
{ "type": "Feature", "properties": { "date": "2023-02-09", "time": "07:52:11", "traffic_class": "heavy traffic", "place": "oke koto", "lat": 6.6273996, "lng": 3.3174882, "admin2Name": "Agege", "Shape_Leng": 0.136929, "Shape_Area": 0.000939 }, "geometry": { "type": "Point", "coordinates": [ 3.3174882, 6.6273996 ] } },
{ "type": "Feature", "properties": { "date": "2023-02-09", "time": "07:52:11", "traffic_class": "free flow", "place": "Oke koto", "lat": 6.6273996, "lng": 3.3174882, "admin2Name": "Agege", "Shape_Leng": 0.136929, "Shape_Area": 0.000939 }, "geometry": { "type": "Point", "coordinates": [ 3.3174882, 6.6273996 ] } },
{ "type": "Feature", "properties": { "date": "2023-02-09", "time": "07:52:11", "traffic_class": "free flow", "place": "Oke koto", "lat": 6.6273996, "lng": 3.3174882, "admin2Name": "Agege", "Shape_Leng": 0.136929, "Shape_Area": 0.000939 }, "geometry": { "type": "Point", "coordinates": [ 3.3174882, 6.6273996 ] } },
{ "type": "Feature", "properties": { "date": "2023-02-09", "time": "07:52:11", "traffic_class": "heavy traffic", "place": "Oke koto", "lat": 6.6273996, "lng": 3.3174882, "admin2Name": "Agege", "Shape_Leng": 0.136929, "Shape_Area": 0.000939 }, "geometry": { "type": "Point", "coordinates": [ 3.3174882, 6.6273996 ] } },
{ "type": "Feature", "properties": { "date": "2023-02-09", "time": "15:44:52", "traffic_class": "free flow", "place": "Okekoto", "lat": 6.6273996, "lng": 3.3174882, "admin2Name": "Agege", "Shape_Leng": 0.136929, "Shape_Area": 0.000939 }, "geometry": { "type": "Point", "coordinates": [ 3.3174882, 6.6273996 ] } },
{ "type": "Feature", "properties": { "date": "2023-02-09", "time": "15:44:52", "traffic_class": "free flow", "place": "Okekoto", "lat": 6.6273996, "lng": 3.3174882, "admin2Name": "Agege", "Shape_Leng": 0.136929, "Shape_Area": 0.000939 }, "geometry": { "type": "Point", "coordinates": [ 3.3174882, 6.6273996 ] } },
{ "type": "Feature", "properties": { "date": "2023-02-09", "time": "15:44:52", "traffic_class": "free flow", "place": "Shofunde", "lat": 6.6247139, "lng": 3.3169752, "admin2Name": "Agege", "Shape_Leng": 0.136929, "Shape_Area": 0.000939 }, "geometry": { "type": "Point", "coordinates": [ 3.3169752, 6.6247139 ] } },
{ "type": "Feature", "properties": { "date": "2023-02-09", "time": "15:44:53", "traffic_class": "free flow", "place": "Dopemu", "lat": 6.612898, "lng": 3.3139943, "admin2Name": "Agege", "Shape_Leng": 0.136929, "Shape_Area": 0.000939 }, "geometry": { "type": "Point", "coordinates": [ 3.3139943, 6.612898 ] } },
{ "type": "Feature", "properties": { "date": "2023-02-09", "time": "15:44:53", "traffic_class": "free flow", "place": "Capitol Road", "lat": 6.6153407, "lng": 3.3242223, "admin2Name": "Agege", "Shape_Leng": 0.136929, "Shape_Area": 0.000939 }, "geometry": { "type": "Point", "coordinates": [ 3.3242223, 6.6153407 ] } },
{ "type": "Feature", "properties": { "date": "2023-02-13", "time": "18:41:06", "traffic_class": "free flow", "place": "Yabatech", "lat": 6.617226, "lng": 3.3200468, "admin2Name": "Agege", "Shape_Leng": 0.136929, "Shape_Area": 0.000939 }, "geometry": { "type": "Point", "coordinates": [ 3.3200468, 6.617226 ] } },
{ "type": "Feature", "properties": { "date": "2023-02-13", "time": "19:03:14", "traffic_class": "free flow", "place": "Capitol road", "lat": 6.6153407, "lng": 3.3242223, "admin2Name": "Agege", "Shape_Leng": 0.136929, "Shape_Area": 0.000939 }, "geometry": { "type": "Point", "coordinates": [ 3.3242223, 6.6153407 ] } },
{ "type": "Feature", "properties": { "date": "2023-02-14", "time": "14:28:54", "traffic_class": "free flow", "place": "Agege", "lat": 6.6179731, "lng": 3.3208916, "admin2Name": "Agege", "Shape_Leng": 0.136929, "Shape_Area": 0.000939 }, "geometry": { "type": "Point", "coordinates": [ 3.3208916, 6.6179731 ] } },
{ "type": "Feature", "properties": { "date": "2023-02-15", "time": "08:11:37", "traffic_class": "breakdown", "place": "Ijaiye", "lat": 6.6233064, "lng": 3.3313365, "admin2Name": "Agege", "Shape_Leng": 0.136929, "Shape_Area": 0.000939 }, "geometry": { "type": "Point", "coordinates": [ 3.3313365, 6.6233064 ] } },
{ "type": "Feature", "properties": { "date": "2023-02-09", "time": "07:52:13", "traffic_class": "free flow", "place": "Ascon junction", "lat": 6.4112238, "lng": 2.9389705, "admin2Name": "Badagry", "Shape_Leng": 1.088898, "Shape_Area": 0.036985 }, "geometry": { "type": "Point", "coordinates": [ 2.9389705, 6.4112238 ] } },
{ "type": "Feature", "properties": { "date": "2023-02-09", "time": "14:07:38", "traffic_class": "free flow", "place": "Ojota bridge", "lat": 6.5873161, "lng": 3.3785711, "admin2Name": "Kosofe", "Shape_Leng": 0.402183, "Shape_Area": 0.006669 }, "geometry": { "type": "Point", "coordinates": [ 3.3785711, 6.5873161 ] } },
{ "type": "Feature", "properties": { "date": "2023-02-09", "time": "14:07:38", "traffic_class": "free flow", "place": "Alapere", "lat": 6.5909029, "lng": 3.3918106, "admin2Name": "Kosofe", "Shape_Leng": 0.402183, "Shape_Area": 0.006669 }, "geometry": { "type": "Point", "coordinates": [ 3.3918106, 6.5909029 ] } },
{ "type": "Feature", "properties": { "date": "2023-02-09", "time": "14:07:38", "traffic_class": "free flow", "place": "Ogudu", "lat": 6.5749107, "lng": 3.3918106, "admin2Name": "Kosofe", "Shape_Leng": 0.402183, "Shape_Area": 0.006669 }, "geometry": { "type": "Point", "coordinates": [ 3.3918106, 6.5749107 ] } },
{ "type": "Feature", "properties": { "date": "2023-02-09", "time": "14:07:38", "traffic_class": "free flow", "place": "Ifako", "lat": 6.5656092, "lng": 3.3880288, "admin2Name": "Kosofe", "Shape_Leng": 0.402183, "Shape_Area": 0.006669 }, "geometry": { "type": "Point", "coordinates": [ 3.3880288, 6.5656092 ] } },
{ "type": "Feature", "properties": { "date": "2023-02-09", "time": "14:07:39", "traffic_class": "heavy traffic", "place": "Ogudu", "lat": 6.5749107, "lng": 3.3918106, "admin2Name": "Kosofe", "Shape_Leng": 0.402183, "Shape_Area": 0.006669 }, "geometry": { "type": "Point", "coordinates": [ 3.3918106, 6.5749107 ] } },
{ "type": "Feature", "properties": { "date": "2023-02-09", "time": "16:38:03", "traffic_class": "free flow", "place": "Iyana School", "lat": 6.6028673, "lng": 3.3935244, "admin2Name": "Kosofe", "Shape_Leng": 0.402183, "Shape_Area": 0.006669 }, "geometry": { "type": "Point", "coordinates": [ 3.3935244, 6.6028673 ] } },
{ "type": "Feature", "properties": { "date": "2023-02-09", "time": "16:38:03", "traffic_class": "free flow", "place": "Kosofe", "lat": 6.5690802, "lng": 3.379308, "admin2Name": "Kosofe", "Shape_Leng": 0.402183, "Shape_Area": 0.006669 }, "geometry": { "type": "Point", "coordinates": [ 3.379308, 6.5690802 ] } },
{ "type": "Feature", "properties": { "date": "2023-02-10", "time": "16:50:49", "traffic_class": "free flow", "place": "Ikosi Road", "lat": 6.5999627, "lng": 3.3829789, "admin2Name": "Kosofe", "Shape_Leng": 0.402183, "Shape_Area": 0.006669 }, "geometry": { "type": "Point", "coordinates": [ 3.3829789, 6.5999627 ] } },
{ "type": "Feature", "properties": { "date": "2023-02-11", "time": "06:58:40", "traffic_class": "free flow", "place": "Iyana-oworo", "lat": 6.5550189, "lng": 3.3962023, "admin2Name": "Kosofe", "Shape_Leng": 0.402183, "Shape_Area": 0.006669 }, "geometry": { "type": "Point", "coordinates": [ 3.3962023, 6.5550189 ] } },
{ "type": "Feature", "properties": { "date": "2023-02-11", "time": "06:58:40", "traffic_class": "free flow", "place": "Gbagada Express Way", "lat": 6.5512359, "lng": 3.3917632, "admin2Name": "Kosofe", "Shape_Leng": 0.402183, "Shape_Area": 0.006669 }, "geometry": { "type": "Point", "coordinates": [ 3.3917632, 6.5512359 ] } },
{ "type": "Feature", "properties": { "date": "2023-02-11", "time": "06:58:40", "traffic_class": "free flow", "place": "Gbagada", "lat": 6.5583517, "lng": 3.3914817, "admin2Name": "Kosofe", "Shape_Leng": 0.402183, "Shape_Area": 0.006669 }, "geometry": { "type": "Point", "coordinates": [ 3.3914817, 6.5583517 ] } },
{ "type": "Feature", "properties": { "date": "2023-02-11", "time": "15:04:35", "traffic_class": "free flow", "place": "Iyana Oworo", "lat": 6.5550189, "lng": 3.3962023, "admin2Name": "Kosofe", "Shape_Leng": 0.402183, "Shape_Area": 0.006669 }, "geometry": { "type": "Point", "coordinates": [ 3.3962023, 6.5550189 ] } },
{ "type": "Feature", "properties": { "date": "2023-02-11", "time": "15:04:35", "traffic_class": "free flow", "place": "Ogudu", "lat": 6.5749107, "lng": 3.3918106, "admin2Name": "Kosofe", "Shape_Leng": 0.402183, "Shape_Area": 0.006669 }, "geometry": { "type": "Point", "coordinates": [ 3.3918106, 6.5749107 ] } },
{ "type": "Feature", "properties": { "date": "2023-02-13", "time": "06:39:05", "traffic_class": "heavy traffic", "place": "Alapere", "lat": 6.5909029, "lng": 3.3918106, "admin2Name": "Kosofe", "Shape_Leng": 0.402183, "Shape_Area": 0.006669 }, "geometry": { "type": "Point", "coordinates": [ 3.3918106, 6.5909029 ] } },
{ "type": "Feature", "properties": { "date": "2023-02-13", "time": "06:39:05", "traffic_class": "heavy traffic", "place": "Ogudu", "lat": 6.5749107, "lng": 3.3918106, "admin2Name": "Kosofe", "Shape_Leng": 0.402183, "Shape_Area": 0.006669 }, "geometry": { "type": "Point", "coordinates": [ 3.3918106, 6.5749107 ] } },
{ "type": "Feature", "properties": { "date": "2023-02-14", "time": "16:19:18", "traffic_class": "heavy traffic", "place": "Iyana Oworo", "lat": 6.5550189, "lng": 3.3962023, "admin2Name": "Kosofe", "Shape_Leng": 0.402183, "Shape_Area": 0.006669 }, "geometry": { "type": "Point", "coordinates": [ 3.3962023, 6.5550189 ] } },
{ "type": "Feature", "properties": { "date": "2023-02-14", "time": "17:08:25", "traffic_class": "heavy traffic", "place": "Ojota", "lat": 6.5873161, "lng": 3.3785711, "admin2Name": "Kosofe", "Shape_Leng": 0.402183, "Shape_Area": 0.006669 }, "geometry": { "type": "Point", "coordinates": [ 3.3785711, 6.5873161 ] } },
{ "type": "Feature", "properties": { "date": "2023-02-15", "time": "06:46:48", "traffic_class": "free flow", "place": "Araromi", "lat": 6.5542999, "lng": 3.3848794, "admin2Name": "Kosofe", "Shape_Leng": 0.402183, "Shape_Area": 0.006669 }, "geometry": { "type": "Point", "coordinates": [ 3.3848794, 6.5542999 ] } },
{ "type": "Feature", "properties": { "date": "2023-02-09", "time": "16:34:29", "traffic_class": "heavy traffic", "place": "Idiroko", "lat": 6.6401727, "lng": 2.7530936, "admin2Name": "Ipokia", "Shape_Leng": 1.287851, "Shape_Area": 0.046809 }, "geometry": { "type": "Point", "coordinates": [ 2.7530936, 6.6401727 ] } },
{ "type": "Feature", "properties": { "date": "2023-02-10", "time": "08:36:05", "traffic_class": "heavy traffic", "place": "Third Mainland Bridge", "lat": 6.5283739, "lng": 3.4027359, "admin2Name": "Shomolu", "Shape_Leng": 0.13782, "Shape_Area": 0.000914 }, "geometry": { "type": "Point", "coordinates": [ 3.4027359, 6.5283739 ] } },
{ "type": "Feature", "properties": { "date": "2023-02-11", "time": "15:04:35", "traffic_class": "free flow", "place": "third mainland bridge", "lat": 6.5283739, "lng": 3.4027359, "admin2Name": "Shomolu", "Shape_Leng": 0.13782, "Shape_Area": 0.000914 }, "geometry": { "type": "Point", "coordinates": [ 3.4027359, 6.5283739 ] } },
{ "type": "Feature", "properties": { "date": "2023-02-13", "time": "08:16:14", "traffic_class": "heavy traffic", "place": "third mainland bridge", "lat": 6.5283739, "lng": 3.4027359, "admin2Name": "Shomolu", "Shape_Leng": 0.13782, "Shape_Area": 0.000914 }, "geometry": { "type": "Point", "coordinates": [ 3.4027359, 6.5283739 ] } },
{ "type": "Feature", "properties": { "date": "2023-02-10", "time": "08:45:22", "traffic_class": "free flow", "place": "Igbosere", "lat": 6.450402, "lng": 3.4001358, "admin2Name": "Lagos Island", "Shape_Leng": 0.104108, "Shape_Area": 0.000703 }, "geometry": { "type": "Point", "coordinates": [ 3.4001358, 6.450402 ] } },
{ "type": "Feature", "properties": { "date": "2023-02-10", "time": "14:20:53", "traffic_class": "free flow", "place": "Ikanla Oju odo", "lat": 6.68966, "lng": 3.332471, "admin2Name": "Ifo", "Shape_Leng": 1.128587, "Shape_Area": 0.044047 }, "geometry": { "type": "Point", "coordinates": [ 3.332471, 6.68966 ] } },
{ "type": "Feature", "properties": { "date": "2023-02-11", "time": "19:58:28", "traffic_class": "free flow", "place": "Lagos Abeokuta", "lat": 6.5243793, "lng": 3.3792057, "admin2Name": "Lagos Mainland", "Shape_Leng": 0.197079, "Shape_Area": 0.001921 }, "geometry": { "type": "Point", "coordinates": [ 3.3792057, 6.5243793 ] } },
{ "type": "Feature", "properties": { "date": "2023-02-12", "time": "06:28:14", "traffic_class": "free flow", "place": "Lagos Ibadan", "lat": 6.5243793, "lng": 3.3792057, "admin2Name": "Lagos Mainland", "Shape_Leng": 0.197079, "Shape_Area": 0.001921 }, "geometry": { "type": "Point", "coordinates": [ 3.3792057, 6.5243793 ] } },
{ "type": "Feature", "properties": { "date": "2023-02-16", "time": "06:00:34", "traffic_class": "free flow", "place": "Carter bridge", "lat": 6.4672812, "lng": 3.3848623, "admin2Name": "Lagos Mainland", "Shape_Leng": 0.197079, "Shape_Area": 0.001921 }, "geometry": { "type": "Point", "coordinates": [ 3.3848623, 6.4672812 ] } },
{ "type": "Feature", "properties": { "date": "2023-02-13", "time": "17:07:24", "traffic_class": "heavy traffic", "place": "Ikorordu Roundabout", "lat": 6.6194131, "lng": 3.5104537, "admin2Name": "Ikorodu", "Shape_Leng": 0.869347, "Shape_Area": 0.032616 }, "geometry": { "type": "Point", "coordinates": [ 3.5104537, 6.6194131 ] } },
{ "type": "Feature", "properties": { "date": "2023-02-15", "time": "06:35:16", "traffic_class": "breakdown", "place": "Epe", "lat": 6.5866632, "lng": 3.9699874, "admin2Name": "Epe", "Shape_Leng": 2.401748, "Shape_Area": 0.096547 }, "geometry": { "type": "Point", "coordinates": [ 3.9699874, 6.5866632 ] } },
{ "type": "Feature", "properties": { "date": "2023-02-16", "time": "05:55:38", "traffic_class": "free flow", "place": "Apapa", "lat": 6.45528, "lng": 3.3640841, "admin2Name": "Apapa", "Shape_Leng": 0.281547, "Shape_Area": 0.00164 }, "geometry": { "type": "Point", "coordinates": [ 3.3640841, 6.45528 ] } }
]
}
